{
  "records": [
    {
      "attributes": {
        "type": "Account",
        "referenceId": "AccountRef1"
      },
      "Name": "Sample Account for Entitlements"
    },
    {
      "attributes": {
        "type": "Account",
        "referenceId": "AccountRef2"
      },
      "Name": "Carter",
      "ParentId": "@AccountRef7",
      "NumberOfEmployees": 30
    },
    {
      "attributes": {
        "type": "Account",
        "referenceId": "AccountRef3"
      },
      "Name": "Anderson",
      "ParentId": "@AccountRef4",
      "NumberOfEmployees": 10,
      "BillingAddress": {
        "city": "New York",
        "country": "USA",
        "geocodeAccuracy": null,
        "latitude": null,
        "longitude": null,
        "postalCode": "11234",
        "state": "New York",
        "street": "1234 ABCD St"
      }
    },
    {
      "attributes": {
        "type": "Account",
        "referenceId": "AccountRef4"
      },
      "Name": "Bengston",
      "ParentId": "@AccountRef2",
      "NumberOfEmployees": 10,
      "ShippingAddress": {
        "city": "Cleveland",
        "country": "USA",
        "geocodeAccuracy": null,
        "latitude": null,
        "longitude": null,
        "postalCode": "12345",
        "state": "OH",
        "street": "123 ABC Ln"
      }
    },
    {
      "attributes": {
        "type": "Account",
        "referenceId": "AccountRef5"
      },
      "Name": "Hall",
      "ParentId": "@AccountRef8",
      "NumberOfEmployees": 8
    },
    {
      "attributes": {
        "type": "Account",
        "referenceId": "AccountRef6"
      },
      "Name": "Garcia",
      "ParentId": "@AccountRef5"
    },
    {
      "attributes": {
        "type": "Account",
        "referenceId": "AccountRef7"
      },
      "Name": "Dean",
      "ParentId": "@AccountRef9",
      "NumberOfEmployees": 80
    },
    {
      "attributes": {
        "type": "Account",
        "referenceId": "AccountRef8"
      },
      "Name": "Irwin"
    },
    {
      "attributes": {
        "type": "Account",
        "referenceId": "AccountRef9"
      },
      "Name": "Eaton",
      "ParentId": "@AccountRef10"
    },
    {
      "attributes": {
        "type": "Account",
        "referenceId": "AccountRef10"
      },
      "Name": "Fisher",
      "ParentId": "@AccountRef6",
      "NumberOfEmployees": 120,
      "BillingAddress": {
        "city": "Denver",
        "country": "USA",
        "geocodeAccuracy": null,
        "latitude": null,
        "longitude": null,
        "postalCode": "12365",
        "state": "CO",
        "street": "5432 Elm Ct"
      }
    }
  ]
}
